{
	"tableHeader" : [
						{
							"header" : "Location"
						},
						{
							"header" : "Address"
						},
						{
							"header" : "Head count"
						}

	],

	"Details" : [
						{
							"Location" : "USA - Fairfax",
							"Address" : "12700 Fair Lakes Circle,Suite 160,Fairfax, VA 22033",
							"Latitude": "38.8585303",
							"Longitude":"-77.3857777",
							"Head count": "60"
						},
						{
							"Location" : "USA - Stafford",
							"Latitude": "29.606751529",
							"Longitude":"-95.564460095",
							"Address" : "920 FM 1092,# 201,Stafford, TX 77477",
							"Head count": "96"
						},
						{
							"Location" : "Australia",
							"Address" : "Rhodes Business Centre,Ground Floor, Suite OB,9 Blaxland Road,Rhodes, NSW 2138",
							"Latitude": "-33.8283881",
							"Longitude":"151.0841974",
							"Head count": "65"
						},
						{
							"Location" : "Singapore",
							"Address" : "8 Temasek Boulevard,#42-01, Suntec Tower Three,Singapore 038988",
							"Latitude": "1.3088718",
							"Longitude":"103.8489699",
							"Head count": "69"
						},
						{
							"Location" : "India-Trivandrum",
							"Address" : "4th Floor, Artech Magnet,Vazhuthacaud,Trivandrum - 695014",
							"Latitude": "8.5000117",
							"Longitude":"76.9601089",
							"Head count": "100"
						},
						{
							"Location" : "India-Trivandrum",
							"Address" : "3rd Floor, Leela Towers,Pattom,Trivandrum - 695004",
							"Latitude": "8.5280237",
							"Longitude":"76.9401103",
							"Head count": "104"
						},
						{
							"Location" : "India-Trivandrum",
							"Address" : "C22, Thejaswini,Technopark,Trivandrum - 695581",
							"Latitude": "8.5581041",
							"Longitude":"76.8807406",
							"Head count": "122"
						},
						{
							"Location" : "India-Cochin",
							"Address" : "9th Floor, 9-A, Phase 4,Carnival Infopark,Cochin - 682030",
							"Latitude": "9.9487291",
							"Longitude":"76.2874888",
							"Head count": "100"
						},
						{
							"Location" : "UK - Sheffield",
							"Address" : "Sheffield Technology Parks,Suite 21, Cooper Buildings,Arundel Street,Sheffield,
							"Latitude": "53.3925999",
							"Longitude":"-1.4702023", S1 2NS",
							"Head count": "68"
						},
						{
							"Location" : "Poland - Bialystok",
							"Address" : "ul. Legionowa 28,3rd Floor ,15-281 Bialystok",
							"Latitude": "53.2005057",
							"Longitude":"23.1945321",
							"Head count": "80"
						},
						{
							"Location" : "UK - Salisbury",
							"Address" : "Nunns Orchard,Dean Lane,Whiteparish,Salisbury, SP5 2RJ",
							"Latitude": "51.0140313",
							"Longitude":"-1.6528460",
							"Head count": "90"
						},
						{
							"Location" : "UAE - Ras al-Khaimah",
							"Address" : "PO Box: 17084,Ras al-Khaimah",
							"Latitude": "25.7920523",
							"Longitude":"55.9468030",
							"Head count": "86"
						},
						
	]
}